{
  "type": "FeatureCollection",
  "features": [
    {
      "type": "Feature",
      "properties": {
        "Name": "LaunchPad",
        "Address": "643 Magazine Street"
      },
      "geometry": {
        "type": "Point",
        "coordinates": [
          -90.06917953491211,
          29.947200258869486
        ]
      }
    },
    {
      "type": "Feature",
      "properties": {
        "Name": "Couturie Forest",
        "Address": "City Park"
      },
      "geometry": {
        "type": "Point",
        "coordinates": [
          -90.09412139654158,
          30.002753864115295
        ]
      }
    },
    {
      "type": "Feature",
      "properties": {
        "Name": "Doullut Steamboat House",
        "Address": "400 Egania Street"
      },
      "geometry": {
        "type": "Point",
        "coordinates": [
          -90.02186000347137,
          29.95597565824114
        ]
      }
    },
    {
      "type": "Feature",
      "properties": {
        "Name": "thingie",
        "Address": "mabob"
      },
      "geometry": {
        "type": "Point",
        "coordinates": [
          -90.06772041320801,
          29.973598484592895
        ]
      }
    },
    {
      "type": "Feature",
      "properties": {
        "Name": "dohickie ",
        "Address": "here"
      },
      "geometry": {
        "type": "Point",
        "coordinates": [
          -90.0714111328125,
          29.978356855353777
        ]
      }
    }
  ]
}